name,location,lat,lon,base_price_kes,contact
Unga Limited,Nairobi,-1.2995,36.8400,3650,+254203933000
Unga Limited,Eldoret,0.5143,35.2698,3500,+254203933000
Mombasa Maize Millers,Mombasa,-4.0435,39.6682,3450,+254722205216
Mombasa Maize Millers,Nairobi,-1.2863,36.8431,3600,+254722205216
Kitui Flour Mills (Dola),Nairobi,-1.3100,36.8600,3550,+254720873855
Alpha Grain Millers,Nairobi,-1.3444,36.9031,3580,+254734445444
Maisha Flour Mills,Nyeri,-0.4167,36.9500,3400,+254202085700
Grain Industries Ltd (Ajab),Mombasa,-4.0500,39.6500,3480,+25441225701